{
    "places": [
        {
            "cost": 6,
            "cuisines": "Cafe, Finger Food, Portuguese",
            "deeplink": "zomato://restaurant/18332931",
            "location": {
                "lat": "38.7409838891",
                "long": "-9.1462019831"
            },
            "name": "Doce Deleite",
            "offer": "food",
            "rating": "3.2"
        },
        {
            "cost": 25,
            "cuisines": "Portuguese, Healthy Food, Vegetarian",
            "deeplink": "zomato://restaurant/18393793",
            "location": {
                "lat": "38.7277808762",
                "long": "-9.1358972713"
            },
            "name": "Polpetta - Almondegaria Artesanal",
            "offer": "food",
            "rating": "4.3"
        },
        {
            "cost": 20,
            "cuisines": "Healthy Food, Cafe",
            "deeplink": "zomato://restaurant/18731433",
            "location": {
                "lat": "38.7140890000",
                "long": "-9.1531530000"
            },
            "name": "Early Birds Lisboa",
            "offer": "food",
            "rating": "3.0"
        },
        {
            "cost": 45,
            "cuisines": "Author, Petiscos, Beverages",
            "deeplink": "zomato://restaurant/8213875",
            "location": {
                "lat": "38.7167129765",
                "long": "-9.1365175322"
            },
            "name": "TOPO",
            "offer": "food",
            "rating": "4.1"
        },
        {
            "cost": 14,
            "cuisines": "Finger Food, Portuguese",
            "deeplink": "zomato://restaurant/18364552",
            "location": {
                "lat": "38.6975239809",
                "long": "-9.1956377774"
            },
            "name": "Marafada Mercearia Algarvia",
            "offer": "food",
            "rating": "3.3"
        },
        {
            "cost": 40,
            "cuisines": "Japanese, Sushi",
            "deeplink": "zomato://restaurant/8211193",
            "location": {
                "lat": "38.7307939610",
                "long": "-9.1470576078"
            },
            "name": "Up to Sushi",
            "offer": "food",
            "rating": "3.9"
        },
        {
            "cost": 16,
            "cuisines": "Burger",
            "deeplink": "zomato://restaurant/8201123",
            "location": {
                "lat": "38.7178736798",
                "long": "-9.1651078686"
            },
            "name": "Hamburgueria da Parada",
            "offer": "food",
            "rating": "3.9"
        },
        {
            "cost": 50,
            "cuisines": "Author, Latin American, Fusion",
            "deeplink": "zomato://restaurant/18255734",
            "location": {
                "lat": "38.7421415830",
                "long": "-9.1022060439"
            },
            "name": "El Bulo",
            "offer": "food",
            "rating": "3.9"
        },
        {
            "cost": 35,
            "cuisines": "Portuguese",
            "deeplink": "zomato://restaurant/8201220",
            "location": {
                "lat": "38.7148419994",
                "long": "-9.1509018838"
            },
            "name": "Frei Contente",
            "offer": "food",
            "rating": "3.6"
        },
        {
            "cost": 20,
            "cuisines": "Finger Food, Desserts, Portuguese, Tea",
            "deeplink": "zomato://restaurant/8209833",
            "location": {
                "lat": "38.7183497798",
                "long": "-9.1659450531"
            },
            "name": "A Minha Cozinha",
            "offer": "food",
            "rating": "4.2"
        },
        {
            "cost": 20,
            "cuisines": "Vegetarian",
            "deeplink": "zomato://restaurant/8210417",
            "location": {
                "lat": "38.7314700567",
                "long": "-9.1487329826"
            },
            "name": "Alfarroba",
            "offer": "food",
            "rating": "3.7"
        },
        {
            "cost": 15,
            "cuisines": "Portuguese, Vegetarian, Cafe, Finger Food",
            "deeplink": "zomato://restaurant/8209725",
            "location": {
                "lat": "38.7203360243",
                "long": "-9.1541932896"
            },
            "name": "Quatro ao Rato",
            "offer": "food",
            "rating": "3.6"
        },
        {
            "cost": 15,
            "cuisines": "Healthy Food, Portuguese, Petiscos",
            "deeplink": "zomato://restaurant/18481067",
            "location": {
                "lat": "38.7346357213",
                "long": "-9.1393291578"
            },
            "name": "Tasca Fit",
            "offer": "drinks",
            "rating": "3.9"
        },
        {
            "cost": 40,
            "cuisines": "Tibetan, Vegetarian, Healthy Food",
            "deeplink": "zomato://restaurant/8200811",
            "location": {
                "lat": "38.7196041050",
                "long": "-9.1486642510"
            },
            "name": "Os Tibetanos",
            "offer": "food",
            "rating": "4.0"
        },
        {
            "cost": 40,
            "cuisines": "Portuguese, Petiscos",
            "deeplink": "zomato://restaurant/8211481",
            "location": {
                "lat": "38.7197192036",
                "long": "-9.1647997499"
            },
            "name": "Pigmeu",
            "offer": "food",
            "rating": "4.1"
        },
        {
            "cost": 20,
            "cuisines": "Greek, Portuguese, Fusion, Healthy Food, Juices",
            "deeplink": "zomato://restaurant/18609196",
            "location": {
                "lat": "38.7298293692",
                "long": "-9.1486977786"
            },
            "name": "A gama do Vasco",
            "offer": "food",
            "rating": "3.9"
        },
        {
            "cost": 30,
            "cuisines": "Portuguese, Petiscos, Cafe, Desserts, Tea",
            "deeplink": "zomato://restaurant/8210859",
            "location": {
                "lat": "38.7556277133",
                "long": "-9.1529873014"
            },
            "name": "Casa do Lago",
            "offer": "food",
            "rating": "3.7"
        },
        {
            "cost": 45,
            "cuisines": "Beverages, Petiscos, Finger Food",
            "deeplink": "zomato://restaurant/8209567",
            "location": {
                "lat": "38.7315500893",
                "long": "-9.1469315439"
            },
            "name": "Panorama Bar - Sheraton Lisboa Hotel & Spa",
            "offer": "drinks",
            "rating": "4.4"
        },
        {
            "cost": 35,
            "cuisines": "Italian, Portuguese",
            "deeplink": "zomato://restaurant/18378098",
            "location": {
                "lat": "38.6974499286",
                "long": "-9.1932905093"
            },
            "name": "Alecrim no Prato",
            "offer": "food",
            "rating": "4.0"
        },
        {
            "cost": 10,
            "cuisines": "Beverages, Finger Food",
            "deeplink": "zomato://restaurant/8209400",
            "location": {
                "lat": "38.7441085998",
                "long": "-9.1408073902"
            },
            "name": "Magic Pool Bar",
            "offer": "drinks",
            "rating": "3.6"
        },
        {
            "cost": 35,
            "cuisines": "Portuguese, Grill",
            "deeplink": "zomato://restaurant/8204639",
            "location": {
                "lat": "38.7370940884",
                "long": "-9.2049909756"
            },
            "name": "Dom Leit\u00e3o",
            "offer": "food",
            "rating": "3.7"
        },
        {
            "cost": 40,
            "cuisines": "French, Portuguese",
            "deeplink": "zomato://restaurant/18537931",
            "location": {
                "lat": "38.7128383358",
                "long": "-9.1424747184"
            },
            "name": "Casa dos Pecados",
            "offer": "drinks",
            "rating": "4.1"
        },
        {
            "cost": 35,
            "cuisines": "Portuguese, Fusion",
            "deeplink": "zomato://restaurant/8210913",
            "location": {
                "lat": "38.7217616498",
                "long": "-9.1450027004"
            },
            "name": "Pato que Fuma",
            "offer": "food",
            "rating": "3.4"
        },
        {
            "cost": 60,
            "cuisines": "Fusion, Portuguese, Spanish, Petiscos",
            "deeplink": "zomato://restaurant/8200113",
            "location": {
                "lat": "38.7090605485",
                "long": "-9.1333528608"
            },
            "name": "Taberna Moderna",
            "offer": "drinks",
            "rating": "4.2"
        },
        {
            "cost": 30,
            "cuisines": "Italian, Pizza",
            "deeplink": "zomato://restaurant/8204373",
            "location": {
                "lat": "38.7538997294",
                "long": "-9.1403554380"
            },
            "name": "Casa Al Parma",
            "offer": "drinks",
            "rating": "3.9"
        },
        {
            "cost": 30,
            "cuisines": "Beverages, Japanese, Snacks",
            "deeplink": "zomato://restaurant/18364569",
            "location": {
                "lat": "38.7169620179",
                "long": "-9.1680894792"
            },
            "name": "Sake Mico Tasting Room",
            "offer": "food",
            "rating": "3.2"
        },
        {
            "cost": 40,
            "cuisines": "Italian, Pizza",
            "deeplink": "zomato://restaurant/8200291",
            "location": {
                "lat": "38.7244626743",
                "long": "-9.1559967399"
            },
            "name": "La Trattoria",
            "offer": "food",
            "rating": "4.2"
        },
        {
            "cost": 40,
            "cuisines": "Fresh Fish, Mediterranean, Contemporary",
            "deeplink": "zomato://restaurant/18237457",
            "location": {
                "lat": "38.7078253990",
                "long": "-9.1432810575"
            },
            "name": "Peixola",
            "offer": "food",
            "rating": "4.4"
        },
        {
            "cost": 30,
            "cuisines": "Beverages, Tapas",
            "deeplink": "zomato://restaurant/18572826",
            "location": {
                "lat": "38.7751631256",
                "long": "-9.0924424678"
            },
            "name": "River Wine",
            "offer": "food",
            "rating": "3.2"
        },
        {
            "cost": 50,
            "cuisines": "Portuguese, Petiscos",
            "deeplink": "zomato://restaurant/8209547",
            "location": {
                "lat": "38.7321252227",
                "long": "-9.1506624967"
            },
            "name": "Real Cozinha Restaurante-Bar - Hotel Real Pal\u00e1cio",
            "offer": "food",
            "rating": "3.9"
        },
        {
            "cost": 20,
            "cuisines": "Indian, Nepalese",
            "deeplink": "zomato://restaurant/18380250",
            "location": {
                "lat": "38.7255672765",
                "long": "-9.1338477284"
            },
            "name": "Swayambhu House",
            "offer": "food",
            "rating": "3.1"
        },
        {
            "cost": 20,
            "cuisines": "Healthy Food, Vegetarian",
            "deeplink": "zomato://restaurant/8201086",
            "location": {
                "lat": "38.7313528847",
                "long": "-9.1336978599"
            },
            "name": "Bio",
            "offer": "food",
            "rating": "4.1"
        },
        {
            "cost": 8,
            "cuisines": "Desserts",
            "deeplink": "zomato://restaurant/8212129",
            "location": {
                "lat": "38.7024714423",
                "long": "-9.1785863042"
            },
            "name": "LXeese Cake Bistro",
            "offer": "food",
            "rating": "4.3"
        },
        {
            "cost": 40,
            "cuisines": "Sushi, Japanese",
            "deeplink": "zomato://restaurant/18364592",
            "location": {
                "lat": "38.7578108378",
                "long": "-9.0964272246"
            },
            "name": "Sushi Lisboa",
            "offer": "food",
            "rating": "4.0"
        },
        {
            "cost": 40,
            "cuisines": "Portuguese, Petiscos, Finger Food",
            "deeplink": "zomato://restaurant/18284489",
            "location": {
                "lat": "38.7082262166",
                "long": "-9.1395283118"
            },
            "name": "Delfina - Cantina Portuguesa",
            "offer": "food",
            "rating": "4.4"
        },
        {
            "cost": 20,
            "cuisines": "Beverages, Finger Food",
            "deeplink": "zomato://restaurant/18563685",
            "location": {
                "lat": "38.7073044896",
                "long": "-9.1434731707"
            },
            "name": "The Couch",
            "offer": "food",
            "rating": "4.0"
        },
        {
            "cost": 20,
            "cuisines": "Portuguese",
            "deeplink": "zomato://restaurant/8200100",
            "location": {
                "lat": "38.7134348103",
                "long": "-9.1437430680"
            },
            "name": "Papo Cheio",
            "offer": "food",
            "rating": "3.8"
        },
        {
            "cost": 50,
            "cuisines": "Seafood, Portuguese",
            "deeplink": "zomato://restaurant/18504755",
            "location": {
                "lat": "38.7070486122",
                "long": "-9.1430621222"
            },
            "name": "Pesqueiro 25",
            "offer": "food",
            "rating": "4.2"
        },
        {
            "cost": 22,
            "cuisines": "Beverages, Petiscos",
            "deeplink": "zomato://restaurant/8209733",
            "location": {
                "lat": "38.7120629115",
                "long": "-9.1423064098"
            },
            "name": "O Purista",
            "offer": "food",
            "rating": "4.0"
        },
        {
            "cost": 70,
            "cuisines": "Contemporary",
            "deeplink": "zomato://restaurant/8209758",
            "location": {
                "lat": "38.7125584096",
                "long": "-9.1273882985"
            },
            "name": "Boi Cavalo",
            "offer": "drinks",
            "rating": "3.8"
        },
        {
            "cost": 20,
            "cuisines": "Cafe, Finger Food, Healthy Food, Tea",
            "deeplink": "zomato://restaurant/18457165",
            "location": {
                "lat": "38.7072066389",
                "long": "-9.1437075287"
            },
            "name": "Menina e Mo\u00e7a - Livraria Bar",
            "offer": "food",
            "rating": "3.5"
        },
        {
            "cost": 15,
            "cuisines": "Healthy Food, Juices, Cafe, Desserts, Crepes",
            "deeplink": "zomato://restaurant/18549490",
            "location": {
                "lat": "38.7166483617",
                "long": "-9.1280524805"
            },
            "name": "Maria Lim\u00e3o",
            "offer": "food",
            "rating": "4.2"
        },
        {
            "cost": 10,
            "cuisines": "Ice Cream, Desserts, Finger Food, Crepes",
            "deeplink": "zomato://restaurant/8204351",
            "location": {
                "lat": "38.7488949029",
                "long": "-9.1907112300"
            },
            "name": "Amori D'Ana",
            "offer": "food",
            "rating": "3.7"
        },
        {
            "cost": 25,
            "cuisines": "Tapas, Portuguese, Fusion, French",
            "deeplink": "zomato://restaurant/18678242",
            "location": {
                "lat": "38.7075253075",
                "long": "-9.1472721845"
            },
            "name": "Caf\u00e9 Janis",
            "offer": "drinks",
            "rating": "3.6"
        },
        {
            "cost": 30,
            "cuisines": "Portuguese",
            "deeplink": "zomato://restaurant/8202954",
            "location": {
                "lat": "38.7305810614",
                "long": "-9.1362707689"
            },
            "name": "Del\u00edcia de Arroios",
            "offer": "food",
            "rating": "4.0"
        },
        {
            "cost": 14,
            "cuisines": "Cafe, Finger Food, Juices, Healthy Food",
            "deeplink": "zomato://restaurant/18341514",
            "location": {
                "lat": "38.7051124951",
                "long": "-9.1808484122"
            },
            "name": "The Food for Real",
            "offer": "food",
            "rating": "4.1"
        },
        {
            "cost": 40,
            "cuisines": "Indian",
            "deeplink": "zomato://restaurant/8209364",
            "location": {
                "lat": "38.7199378904",
                "long": "-9.1434205323"
            },
            "name": "Maharaja",
            "offer": "food",
            "rating": "3.9"
        },
        {
            "cost": 15,
            "cuisines": "Finger Food, Cafe, Portuguese",
            "deeplink": "zomato://restaurant/8210665",
            "location": {
                "lat": "38.7493480475",
                "long": "-9.2019500211"
            },
            "name": "Jardins de Benfica",
            "offer": "food",
            "rating": "3.8"
        },
        {
            "cost": 48,
            "cuisines": "Petiscos, Mediterranean, Portuguese",
            "deeplink": "zomato://restaurant/8209374",
            "location": {
                "lat": "38.7131619500",
                "long": "-9.1255811602"
            },
            "name": "Bela - Vinhos e Petiscos",
            "offer": "drinks",
            "rating": "3.7"
        },
        {
            "cost": 50,
            "cuisines": "Sushi, Japanese",
            "deeplink": "zomato://restaurant/8209284",
            "location": {
                "lat": "38.7044440000",
                "long": "-9.1555560000"
            },
            "name": "Sakana",
            "offer": "food",
            "rating": "3.6"
        },
        {
            "cost": 25,
            "cuisines": "Cafe, Petiscos, Beverages",
            "deeplink": "zomato://restaurant/18292882",
            "location": {
                "lat": "38.7156901190",
                "long": "-9.1630737484"
            },
            "name": "Mercearia do Campo",
            "offer": "drinks",
            "rating": "3.7"
        },
        {
            "cost": 30,
            "cuisines": "Portuguese",
            "deeplink": "zomato://restaurant/18261566",
            "location": {
                "lat": "38.7056632473",
                "long": "-9.1613484174"
            },
            "name": "Restaurante Ra\u00edzes",
            "offer": "food",
            "rating": "3.7"
        },
        {
            "cost": 75,
            "cuisines": "International, Portuguese, Contemporary",
            "deeplink": "zomato://restaurant/18261123",
            "location": {
                "lat": "38.7268397843",
                "long": "-9.1553664207"
            },
            "name": "Akla",
            "offer": "food",
            "rating": "4.2"
        },
        {
            "cost": 12,
            "cuisines": "Cafe, Finger Food, Healthy Food, Desserts, Crepes",
            "deeplink": "zomato://restaurant/18425558",
            "location": {
                "lat": "38.7102143122",
                "long": "-9.1399075091"
            },
            "name": "Casinha Boutique Caf\u00e9",
            "offer": "food",
            "rating": "3.7"
        },
        {
            "cost": 20,
            "cuisines": "Gourmet Fast Food, Petiscos, Finger Food",
            "deeplink": "zomato://restaurant/8204262",
            "location": {
                "lat": "38.7577444300",
                "long": "-9.1546861455"
            },
            "name": "Caf\u00e9 Concerto - Funda\u00e7\u00e3o LIGA",
            "offer": "food",
            "rating": "3.7"
        },
        {
            "cost": 35,
            "cuisines": "Latin American, Mexican, Tapas, Beverages",
            "deeplink": "zomato://restaurant/18609355",
            "location": {
                "lat": "38.7109478974",
                "long": "-9.1534885392"
            },
            "name": "La Pura Vida",
            "offer": "food",
            "rating": "3.7"
        },
        {
            "cost": 30,
            "cuisines": "Tapas, Petiscos, Spanish, Portuguese",
            "deeplink": "zomato://restaurant/8200362",
            "location": {
                "lat": "38.7106145932",
                "long": "-9.1343808174"
            },
            "name": "Velha Gaiteira",
            "offer": "food",
            "rating": "3.9"
        },
        {
            "cost": 12,
            "cuisines": "Cafe, Desserts, Finger Food",
            "deeplink": "zomato://restaurant/18641307",
            "location": {
                "lat": "38.7334786903",
                "long": "-9.1486085951"
            },
            "name": "You Cake It",
            "offer": "food",
            "rating": "4.3"
        },
        {
            "cost": 30,
            "cuisines": "Portuguese",
            "deeplink": "zomato://restaurant/8214502",
            "location": {
                "lat": "38.7150138739",
                "long": "-9.1390887648"
            },
            "name": "Chamin\u00e9s do Pal\u00e1cio",
            "offer": "food",
            "rating": "3.8"
        },
        {
            "cost": 15,
            "cuisines": "Finger Food, Cafe, Bakery",
            "deeplink": "zomato://restaurant/8201437",
            "location": {
                "lat": "38.7635865141",
                "long": "-9.1775764525"
            },
            "name": "Maria Gulosa",
            "offer": "food",
            "rating": "3.5"
        },
        {
            "cost": 12,
            "cuisines": "Healthy Food, Author",
            "deeplink": "zomato://restaurant/18425596",
            "location": {
                "lat": "38.7019287768",
                "long": "-9.1780887544"
            },
            "name": "Kitschen",
            "offer": "food",
            "rating": "3.5"
        },
        {
            "cost": 30,
            "cuisines": "Mexican",
            "deeplink": "zomato://restaurant/18720965",
            "location": {
                "lat": "38.7063874602",
                "long": "-9.1748476401"
            },
            "name": "Izcalli Antojeria",
            "offer": "drinks",
            "rating": "3.9"
        },
        {
            "cost": 10,
            "cuisines": "Cafe, Finger Food, Portuguese",
            "deeplink": "zomato://restaurant/18530622",
            "location": {
                "lat": "38.6975140374",
                "long": "-9.1991568357"
            },
            "name": "Versailles Bel\u00e9m - Pastelaria",
            "offer": "food",
            "rating": "3.3"
        },
        {
            "cost": 80,
            "cuisines": "Fresh Fish, Seafood, Portuguese",
            "deeplink": "zomato://restaurant/18261577",
            "location": {
                "lat": "38.7058118580",
                "long": "-9.1484808549"
            },
            "name": "Monte Mar Lisboa",
            "offer": "food",
            "rating": "3.8"
        },
        {
            "cost": 20,
            "cuisines": "Healthy Food, Juices",
            "deeplink": "zomato://restaurant/18373832",
            "location": {
                "lat": "38.7093412732",
                "long": "-9.1532595456"
            },
            "name": "Tapioca Oca",
            "offer": "food",
            "rating": "3.7"
        },
        {
            "cost": 18,
            "cuisines": "Austrian",
            "deeplink": "zomato://restaurant/18277311",
            "location": {
                "lat": "38.7138405670",
                "long": "-9.1531931609"
            },
            "name": "Wurst - Salsicharia Austr\u00edaca",
            "offer": "food",
            "rating": "4.0"
        },
        {
            "cost": 30,
            "cuisines": "Beverages, Petiscos, Portuguese, Finger Food",
            "deeplink": "zomato://restaurant/8203875",
            "location": {
                "lat": "38.7072490234",
                "long": "-9.1437621787"
            },
            "name": "Espumantaria do Cais",
            "offer": "food",
            "rating": "3.8"
        },
        {
            "cost": 30,
            "cuisines": "Contemporary, International, Petiscos",
            "deeplink": "zomato://restaurant/18671480",
            "location": {
                "lat": "38.7077853694",
                "long": "-9.1461258754"
            },
            "name": "Bohemio da Ribeira",
            "offer": "drinks",
            "rating": "3.8"
        },
        {
            "cost": 50,
            "cuisines": "Portuguese, Grill",
            "deeplink": "zomato://restaurant/8201091",
            "location": {
                "lat": "38.7000105757",
                "long": "-9.1775606945"
            },
            "name": "Doca Seis",
            "offer": "food",
            "rating": "3.9"
        },
        {
            "cost": 20,
            "cuisines": "Finger Food, Cafe, Tapas",
            "deeplink": "zomato://restaurant/8202199",
            "location": {
                "lat": "38.7210480558",
                "long": "-9.1347730905"
            },
            "name": "O das Joanas",
            "offer": "food",
            "rating": "3.5"
        },
        {
            "cost": 35,
            "cuisines": "Portuguese, Petiscos",
            "deeplink": "zomato://restaurant/8201258",
            "location": {
                "lat": "38.7148529868",
                "long": "-9.1502725706"
            },
            "name": "Trivial",
            "offer": "food",
            "rating": "3.6"
        },
        {
            "cost": 10,
            "cuisines": "Finger Food, Cafe",
            "deeplink": "zomato://restaurant/8203620",
            "location": {
                "lat": "38.7095000797",
                "long": "-9.1474938020"
            },
            "name": "Quiosque do Adamastor",
            "offer": "drinks",
            "rating": "3.8"
        },
        {
            "cost": 40,
            "cuisines": "Petiscos, Tapas, Portuguese, Finger Food, Desserts, Beverages, Healthy Food",
            "deeplink": "zomato://restaurant/18326003",
            "location": {
                "lat": "38.7351498931",
                "long": "-9.1467280313"
            },
            "name": "Ch\u00e9vere",
            "offer": "food",
            "rating": "4.1"
        },
        {
            "cost": 14,
            "cuisines": "Healthy Food, Vegetarian",
            "deeplink": "zomato://restaurant/8200901",
            "location": {
                "lat": "38.7190827583",
                "long": "-9.1431117430"
            },
            "name": "Arco \u00cdris",
            "offer": "food",
            "rating": "3.8"
        },
        {
            "cost": 20,
            "cuisines": "Portuguese",
            "deeplink": "zomato://restaurant/18301464",
            "location": {
                "lat": "38.7089859849",
                "long": "-9.1501612589"
            },
            "name": "Arquivo Geral",
            "offer": "food",
            "rating": "3.2"
        },
        {
            "cost": 40,
            "cuisines": "Indian",
            "deeplink": "zomato://restaurant/8201089",
            "location": {
                "lat": "38.7166439145",
                "long": "-9.1438755021"
            },
            "name": "Tamarind",
            "offer": "food",
            "rating": "3.6"
        },
        {
            "cost": 25,
            "cuisines": "Petiscos, Portuguese, Beverages",
            "deeplink": "zomato://restaurant/8209460",
            "location": {
                "lat": "38.7120893347",
                "long": "-9.1446174681"
            },
            "name": "Oito Nove",
            "offer": "drinks",
            "rating": "3.8"
        },
        {
            "cost": 40,
            "cuisines": "Petiscos, Finger Food, Beverages, Portuguese",
            "deeplink": "zomato://restaurant/8214961",
            "location": {
                "lat": "38.7073678048",
                "long": "-9.1414980590"
            },
            "name": "Clube do Bacalhau",
            "offer": "food",
            "rating": "3.8"
        },
        {
            "cost": 20,
            "cuisines": "Vegetarian",
            "deeplink": "zomato://restaurant/8210608",
            "location": {
                "lat": "38.7179126573",
                "long": "-9.1457892582"
            },
            "name": "Planeta Bio",
            "offer": "food",
            "rating": "3.7"
        },
        {
            "cost": 40,
            "cuisines": "Fusion, International",
            "deeplink": "zomato://restaurant/18371075",
            "location": {
                "lat": "38.7104623297",
                "long": "-9.1540588439"
            },
            "name": "DownUnder by Justin Jennings",
            "offer": "food",
            "rating": "4.6"
        },
        {
            "cost": 40,
            "cuisines": "Portuguese, Tapas",
            "deeplink": "zomato://restaurant/8214102",
            "location": {
                "lat": "38.7102253003",
                "long": "-9.1348019242"
            },
            "name": "D. Afonso O Gordo",
            "offer": "food",
            "rating": "3.4"
        },
        {
            "cost": 20,
            "cuisines": "Beverages, Finger Food, Tapas",
            "deeplink": "zomato://restaurant/18519640",
            "location": {
                "lat": "38.7193720761",
                "long": "-9.1367569193"
            },
            "name": "22 Lounge",
            "offer": "food",
            "rating": "3.9"
        },
        {
            "cost": 45,
            "cuisines": "Swiss, Fondue, French, German, International",
            "deeplink": "zomato://restaurant/8201266",
            "location": {
                "lat": "38.7127729326",
                "long": "-9.1510487348"
            },
            "name": "Bistro Edelweiss",
            "offer": "food",
            "rating": "4.0"
        },
        {
            "cost": 25,
            "cuisines": "Beverages, Finger Food",
            "deeplink": "zomato://restaurant/18528616",
            "location": {
                "lat": "38.7199214104",
                "long": "-9.1489975154"
            },
            "name": "Level Eight",
            "offer": "drinks",
            "rating": "3.8"
        },
        {
            "cost": 15,
            "cuisines": "Healthy Food, Juices",
            "deeplink": "zomato://restaurant/18682904",
            "location": {
                "lat": "38.7178030493",
                "long": "-9.1663732007"
            },
            "name": "Bowl",
            "offer": "drinks",
            "rating": "4.0"
        },
        {
            "cost": 40,
            "cuisines": "Vegetarian, Healthy Food",
            "deeplink": "zomato://restaurant/8201244",
            "location": {
                "lat": "38.7146675084",
                "long": "-9.1491618007"
            },
            "name": "Terra",
            "offer": "food",
            "rating": "4.0"
        },
        {
            "cost": 40,
            "cuisines": "Portuguese",
            "deeplink": "zomato://restaurant/8209885",
            "location": {
                "lat": "38.7121920000",
                "long": "-9.1431090000"
            },
            "name": "Com-Tradi\u00e7\u00e3o",
            "offer": "food",
            "rating": "4.0"
        },
        {
            "cost": 30,
            "cuisines": "Burger, Portuguese, Petiscos, Tapas",
            "deeplink": "zomato://restaurant/18250882",
            "location": {
                "lat": "38.7141987089",
                "long": "-9.1310236976"
            },
            "name": "O Prego",
            "offer": "food",
            "rating": "3.8"
        },
        {
            "cost": 40,
            "cuisines": "Seafood, Belgian, Beverages",
            "deeplink": "zomato://restaurant/8201164",
            "location": {
                "lat": "38.7185687324",
                "long": "-9.1649888456"
            },
            "name": "Moules & Beer",
            "offer": "food",
            "rating": "4.2"
        },
        {
            "cost": 25,
            "cuisines": "Portuguese",
            "deeplink": "zomato://restaurant/18532564",
            "location": {
                "lat": "38.7071817837",
                "long": "-9.1548829526"
            },
            "name": "O Jardim",
            "offer": "food",
            "rating": "3.8"
        },
        {
            "cost": 40,
            "cuisines": "Petiscos, Author",
            "deeplink": "zomato://restaurant/8203409",
            "location": {
                "lat": "38.7088333333",
                "long": "-9.1493333333"
            },
            "name": "Mezzanine Creative Restaurant",
            "offer": "food",
            "rating": "3.3"
        },
        {
            "cost": 15,
            "cuisines": "Finger Food, Healthy Food",
            "deeplink": "zomato://restaurant/18634810",
            "location": {
                "lat": "38.7317820787",
                "long": "-9.1402618960"
            },
            "name": "Raffi\u2019s Bagels Estefania",
            "offer": "food",
            "rating": "3.8"
        },
        {
            "cost": 30,
            "cuisines": "Turkish, Kebab",
            "deeplink": "zomato://restaurant/8203606",
            "location": {
                "lat": "38.7048288757",
                "long": "-9.1594353318"
            },
            "name": "Dervixe",
            "offer": "food",
            "rating": "3.8"
        },
        {
            "cost": 25,
            "cuisines": "Portuguese, Italian, Petiscos",
            "deeplink": "zomato://restaurant/8202577",
            "location": {
                "lat": "38.7569200788",
                "long": "-9.0939766914"
            },
            "name": "Pit\u00e9us",
            "offer": "food",
            "rating": "3.3"
        },
        {
            "cost": 20,
            "cuisines": "Beverages, Petiscos",
            "deeplink": "zomato://restaurant/8203459",
            "location": {
                "lat": "38.7145516169",
                "long": "-9.1458918527"
            },
            "name": "Loucos e Sonhadores",
            "offer": "drinks",
            "rating": "4.0"
        },
        {
            "cost": 20,
            "cuisines": "Healthy Food, Vegetarian, Juices",
            "deeplink": "zomato://restaurant/8211003",
            "location": {
                "lat": "38.7111027760",
                "long": "-9.1424928233"
            },
            "name": "SPINACH Take it Fresh",
            "offer": "food",
            "rating": "4.1"
        },
        {
            "cost": 25,
            "cuisines": "Portuguese, Petiscos",
            "deeplink": "zomato://restaurant/8209884",
            "location": {
                "lat": "38.7145495240",
                "long": "-9.1537121683"
            },
            "name": "Atelier 145",
            "offer": "food",
            "rating": "3.6"
        },
        {
            "cost": 18,
            "cuisines": "Nepalese",
            "deeplink": "zomato://restaurant/8203005",
            "location": {
                "lat": "38.7465671638",
                "long": "-9.1322270036"
            },
            "name": "Pokhara",
            "offer": "food",
            "rating": "3.5"
        },
        {
            "cost": 30,
            "cuisines": "Portuguese",
            "deeplink": "zomato://restaurant/8203568",
            "location": {
                "lat": "38.7766242497",
                "long": "-9.0955880284"
            },
            "name": "A Leitaria Gourmet",
            "offer": "food",
            "rating": "3.5"
        },
        {
            "cost": 30,
            "cuisines": "Finger Food, British, Irish",
            "deeplink": "zomato://restaurant/8203645",
            "location": {
                "lat": "38.7068387815",
                "long": "-9.1438372806"
            },
            "name": "O'Gilins - Irish Pub",
            "offer": "drinks",
            "rating": "3.9"
        },
        {
            "cost": 40,
            "cuisines": "Portuguese, Petiscos",
            "deeplink": "zomato://restaurant/8202634",
            "location": {
                "lat": "38.7126306150",
                "long": "-9.1380024701"
            },
            "name": "Elevador - Hotel Santa Justa",
            "offer": "food",
            "rating": "3.9"
        },
        {
            "cost": 12,
            "cuisines": "Finger Food, Beverages",
            "deeplink": "zomato://restaurant/8214534",
            "location": {
                "lat": "38.7370117083",
                "long": "-9.1439127177"
            },
            "name": "Double Deuce",
            "offer": "drinks",
            "rating": "3.1"
        },
        {
            "cost": 35,
            "cuisines": "Portuguese, Sushi",
            "deeplink": "zomato://restaurant/8204239",
            "location": {
                "lat": "38.7016378185",
                "long": "-9.2087514326"
            },
            "name": "Varanda Azul",
            "offer": "food",
            "rating": "3.5"
        },
        {
            "cost": 25,
            "cuisines": "Indian, Nepalese, Portuguese",
            "deeplink": "zomato://restaurant/18608912",
            "location": {
                "lat": "38.7395560320",
                "long": "-9.1332589835"
            },
            "name": "Panas Restaurante",
            "offer": "food",
            "rating": "3.4"
        },
        {
            "cost": 25,
            "cuisines": "Healthy Food, Juices",
            "deeplink": "zomato://restaurant/18610399",
            "location": {
                "lat": "38.7084135431",
                "long": "-9.1536923870"
            },
            "name": "Fauna & Flora",
            "offer": "drinks",
            "rating": "4.6"
        },
        {
            "cost": 35,
            "cuisines": "Italian, Pizza",
            "deeplink": "zomato://restaurant/18646907",
            "location": {
                "lat": "38.7531725989",
                "long": "-9.1428649798"
            },
            "name": "Pasta Non Basta",
            "offer": "drinks",
            "rating": "4.2"
        },
        {
            "cost": 10,
            "cuisines": "Argentine",
            "deeplink": "zomato://restaurant/18629462",
            "location": {
                "lat": "38.7135229729",
                "long": "-9.1355284676"
            },
            "name": "Cafesito Union",
            "offer": "drinks",
            "rating": "3.4"
        },
        {
            "cost": 10,
            "cuisines": "Drinks Only",
            "deeplink": "zomato://restaurant/8212884",
            "location": {
                "lat": "38.7161806216",
                "long": "-9.1332868114"
            },
            "name": "Flamingo Bar",
            "offer": "drinks",
            "rating": "3.5"
        },
        {
            "cost": 8,
            "cuisines": "Desserts",
            "deeplink": "zomato://restaurant/18419336",
            "location": {
                "lat": "38.7082646761",
                "long": "-9.2084252089"
            },
            "name": "Miss Brownie",
            "offer": "food",
            "rating": "3.6"
        },
        {
            "cost": 15,
            "cuisines": "Cafe, Finger Food, Petiscos",
            "deeplink": "zomato://restaurant/18518733",
            "location": {
                "lat": "38.7234142934",
                "long": "-9.1425776482"
            },
            "name": "Tra\u00e7a",
            "offer": "food",
            "rating": "3.5"
        },
        {
            "cost": 40,
            "cuisines": "Portuguese, Steak, Petiscos",
            "deeplink": "zomato://restaurant/18625226",
            "location": {
                "lat": "38.7115569453",
                "long": "-9.1422433779"
            },
            "name": "Of\u00edcio",
            "offer": "food",
            "rating": "4.3"
        },
        {
            "cost": 25,
            "cuisines": "Sushi, Japanese",
            "deeplink": "zomato://restaurant/18430539",
            "location": {
                "lat": "38.7476308940",
                "long": "-9.1407363117"
            },
            "name": "Black Sushi",
            "offer": "food",
            "rating": "3.7"
        },
        {
            "cost": 60,
            "cuisines": "Portuguese",
            "deeplink": "zomato://restaurant/18430526",
            "location": {
                "lat": "38.7316748458",
                "long": "-9.1515315324"
            },
            "name": "The Lingerie Restaurant",
            "offer": "food",
            "rating": "4.0"
        },
        {
            "cost": 20,
            "cuisines": "Healthy Food, Portuguese, Vegetarian",
            "deeplink": "zomato://restaurant/18646865",
            "location": {
                "lat": "38.7135768646",
                "long": "-9.1372008249"
            },
            "name": "Eight - The Health Lounge",
            "offer": "drinks",
            "rating": "3.7"
        },
        {
            "cost": 30,
            "cuisines": "Petiscos, Beverages",
            "deeplink": "zomato://restaurant/18301483",
            "location": {
                "lat": "38.7101114945",
                "long": "-9.1459595785"
            },
            "name": "Os Bons Malandros",
            "offer": "food",
            "rating": "3.8"
        },
        {
            "cost": 30,
            "cuisines": "Healthy Food, Vegetarian, Fusion",
            "deeplink": "zomato://restaurant/8200968",
            "location": {
                "lat": "38.7140754916",
                "long": "-9.1306870803"
            },
            "name": "Princesa do Castelo",
            "offer": "drinks",
            "rating": "3.4"
        },
        {
            "cost": 16,
            "cuisines": "Cafe, Finger Food, Tea",
            "deeplink": "zomato://restaurant/8209519",
            "location": {
                "lat": "38.7194005893",
                "long": "-9.1555877030"
            },
            "name": "Casa de Ch\u00e1 Santa Isabel - Vicentinas",
            "offer": "food",
            "rating": "3.9"
        },
        {
            "cost": 30,
            "cuisines": "Portuguese",
            "deeplink": "zomato://restaurant/18567095",
            "location": {
                "lat": "38.7271280245",
                "long": "-9.1630311683"
            },
            "name": "Stop do Bairro",
            "offer": "food",
            "rating": "3.7"
        },
        {
            "cost": 20,
            "cuisines": "Ramen, Oriental",
            "deeplink": "zomato://restaurant/18451853",
            "location": {
                "lat": "38.7312440819",
                "long": "-9.1336757317"
            },
            "name": "YiMianYuan",
            "offer": "food",
            "rating": "3.6"
        },
        {
            "cost": 40,
            "cuisines": "Mediterranean, Contemporary, Petiscos",
            "deeplink": "zomato://restaurant/18393784",
            "location": {
                "lat": "38.7239690897",
                "long": "-9.1473727673"
            },
            "name": "hora h",
            "offer": "food",
            "rating": "3.9"
        },
        {
            "cost": 35,
            "cuisines": "International, Japanese, Sushi, Beverages",
            "deeplink": "zomato://restaurant/8214429",
            "location": {
                "lat": "38.7537002334",
                "long": "-9.1654635966"
            },
            "name": "Golf Spot - Academia de Golfe de Lisboa",
            "offer": "food",
            "rating": "3.7"
        },
        {
            "cost": 45,
            "cuisines": "Portuguese, Mediterranean",
            "deeplink": "zomato://restaurant/8211255",
            "location": {
                "lat": "38.7238555673",
                "long": "-9.1510618106"
            },
            "name": "Ast\u00f3ria",
            "offer": "food",
            "rating": "3.8"
        },
        {
            "cost": 35,
            "cuisines": "Petiscos, Portuguese",
            "deeplink": "zomato://restaurant/8212075",
            "location": {
                "lat": "38.7087261890",
                "long": "-9.1395169124"
            },
            "name": "Coimbra Taberna",
            "offer": "food",
            "rating": "3.9"
        },
        {
            "cost": 40,
            "cuisines": "Steak, Beverages",
            "deeplink": "zomato://restaurant/18673645",
            "location": {
                "lat": "38.7615687930",
                "long": "-9.1545272246"
            },
            "name": "Territ\u00f3rio - Music Bar & Restaurante",
            "offer": "drinks",
            "rating": "3.4"
        },
        {
            "cost": 15,
            "cuisines": "Vegetarian, Burger",
            "deeplink": "zomato://restaurant/18430524",
            "location": {
                "lat": "38.7078015905",
                "long": "-9.1462244466"
            },
            "name": "Vegana Burgers",
            "offer": "food",
            "rating": "3.9"
        },
        {
            "cost": 35,
            "cuisines": "Portuguese, Seafood",
            "deeplink": "zomato://restaurant/8200960",
            "location": {
                "lat": "38.7117377227",
                "long": "-9.1305549815"
            },
            "name": "Farol de Santa Luzia",
            "offer": "food",
            "rating": "3.9"
        },
        {
            "cost": 50,
            "cuisines": "Portuguese, Healthy Food, Mediterranean, Beverages",
            "deeplink": "zomato://restaurant/18237466",
            "location": {
                "lat": "38.7098639990",
                "long": "-9.1512153670"
            },
            "name": "Clube Royale",
            "offer": "food",
            "rating": "3.6"
        },
        {
            "cost": 15,
            "cuisines": "Portuguese, Brazilian, Tea",
            "deeplink": "zomato://restaurant/18664982",
            "location": {
                "lat": "38.7635381501",
                "long": "-9.1773021966"
            },
            "name": "Celani",
            "offer": "food",
            "rating": "0"
        },
        {
            "cost": 20,
            "cuisines": "Healthy Food, Beverages",
            "deeplink": "zomato://restaurant/18560532",
            "location": {
                "lat": "38.7186307296",
                "long": "-9.1320560128"
            },
            "name": "Jangada Urbana",
            "offer": "food",
            "rating": "3.2"
        },
        {
            "cost": 30,
            "cuisines": "Portuguese, African",
            "deeplink": "zomato://restaurant/18577819",
            "location": {
                "lat": "38.7451532776",
                "long": "-9.1359254345"
            },
            "name": "Okavango",
            "offer": "food",
            "rating": "3.7"
        },
        {
            "cost": 35,
            "cuisines": "Japanese, Sushi",
            "deeplink": "zomato://restaurant/18625281",
            "location": {
                "lat": "38.7546550902",
                "long": "-9.1409210488"
            },
            "name": "The Sushi Box",
            "offer": "food",
            "rating": "3.7"
        },
        {
            "cost": 20,
            "cuisines": "Tapas, Portuguese",
            "deeplink": "zomato://restaurant/18393779",
            "location": {
                "lat": "38.6989783209",
                "long": "-9.2255289853"
            },
            "name": "Tapas na Pedra | Nutt's Away",
            "offer": "food",
            "rating": "3.2"
        },
        {
            "cost": 6,
            "cuisines": "Cafe, Finger Food, Desserts",
            "deeplink": "zomato://restaurant/18619788",
            "location": {
                "lat": "38.7090861879",
                "long": "-9.1521370411"
            },
            "name": "Caffeine Garage",
            "offer": "food",
            "rating": "3.1"
        },
        {
            "cost": 15,
            "cuisines": "Beverages, Finger Food",
            "deeplink": "zomato://restaurant/8209743",
            "location": {
                "lat": "38.7179163196",
                "long": "-9.1624803096"
            },
            "name": "Bar Mignon",
            "offer": "drinks",
            "rating": "3.7"
        },
        {
            "cost": 12,
            "cuisines": "Beverages, Cafe",
            "deeplink": "zomato://restaurant/18721796",
            "location": {
                "lat": "38.7245480000",
                "long": "-9.1330300000"
            },
            "name": "Leo Snacks & Bar",
            "offer": "drinks",
            "rating": "0"
        },
        {
            "cost": 6,
            "cuisines": "Cafe, Finger Food, Portuguese, Bakery, Tapas",
            "deeplink": "zomato://restaurant/8200107",
            "location": {
                "lat": "38.7103249783",
                "long": "-9.1351744160"
            },
            "name": "H\u00e1 Caf\u00e9 no Alfarrabista",
            "offer": "food",
            "rating": "3.5"
        },
        {
            "cost": 20,
            "cuisines": "Beverages, Petiscos",
            "deeplink": "zomato://restaurant/18529325",
            "location": {
                "lat": "38.7105157004",
                "long": "-9.1464966908"
            },
            "name": "Cervejaria Artesanal Adamastor",
            "offer": "food",
            "rating": "3.2"
        },
        {
            "cost": 25,
            "cuisines": "Portuguese, Beverages",
            "deeplink": "zomato://restaurant/18454001",
            "location": {
                "lat": "38.7146850360",
                "long": "-9.1491621360"
            },
            "name": "Loucos de Lisboa",
            "offer": "food",
            "rating": "4.3"
        },
        {
            "cost": 70,
            "cuisines": "Mediterranean, Beverages",
            "deeplink": "zomato://restaurant/18650266",
            "location": {
                "lat": "38.7052980000",
                "long": "-9.1703000000"
            },
            "name": "31 d\u2019Armada Restaurante & Bar",
            "offer": "drinks",
            "rating": "3.9"
        },
        {
            "cost": 30,
            "cuisines": "Sushi, Japanese",
            "deeplink": "zomato://restaurant/18537881",
            "location": {
                "lat": "38.7075724013",
                "long": "-9.1467196494"
            },
            "name": "Sushi Shop",
            "offer": "food",
            "rating": "3.8"
        },
        {
            "cost": 24,
            "cuisines": "Italian, Mediterranean",
            "deeplink": "zomato://restaurant/8212969",
            "location": {
                "lat": "38.7161327487",
                "long": "-9.1665421799"
            },
            "name": "Aldente",
            "offer": "food",
            "rating": "3.9"
        },
        {
            "cost": 20,
            "cuisines": "Beverages, Finger Food",
            "deeplink": "zomato://restaurant/8213732",
            "location": {
                "lat": "38.7382568142",
                "long": "-9.1414149106"
            },
            "name": "Highview - Holiday Inn Lisboa",
            "offer": "drinks",
            "rating": "3.2"
        },
        {
            "cost": 20,
            "cuisines": "Portuguese, Tapas",
            "deeplink": "zomato://restaurant/18675373",
            "location": {
                "lat": "38.7309791360",
                "long": "-9.1330303252"
            },
            "name": "Copo e meio",
            "offer": "food",
            "rating": "3.1"
        },
        {
            "cost": 15,
            "cuisines": "Finger Food, Beverages, Moroccan, Tea",
            "deeplink": "zomato://restaurant/18665991",
            "location": {
                "lat": "38.7166721672",
                "long": "-9.1469519958"
            },
            "name": "Shisha Tea Food",
            "offer": "food",
            "rating": "3.1"
        },
        {
            "cost": 25,
            "cuisines": "Peruvian",
            "deeplink": "zomato://restaurant/18607142",
            "location": {
                "lat": "38.7476400460",
                "long": "-9.1406370699"
            },
            "name": "Chasqui - Cozinha Peruana",
            "offer": "food",
            "rating": "3.6"
        },
        {
            "cost": 20,
            "cuisines": "Italian, Pizza",
            "deeplink": "zomato://restaurant/8200984",
            "location": {
                "lat": "38.7047417489",
                "long": "-9.1682725400"
            },
            "name": "Florentino",
            "offer": "food",
            "rating": "3.6"
        },
        {
            "cost": 30,
            "cuisines": "Portuguese, Petiscos, Seafood",
            "deeplink": "zomato://restaurant/18675762",
            "location": {
                "lat": "38.7135792191",
                "long": "-9.1250973567"
            },
            "name": "Ghoroa Restaurante Portugu\u00eas",
            "offer": "food",
            "rating": "3.1"
        },
        {
            "cost": 24,
            "cuisines": "Portuguese, Grill, Finger Food, Cafe",
            "deeplink": "zomato://restaurant/8203094",
            "location": {
                "lat": "38.7067487791",
                "long": "-9.2096010223"
            },
            "name": "Cozinha de Bairro",
            "offer": "food",
            "rating": "3.5"
        },
        {
            "cost": 40,
            "cuisines": "Petiscos, Beverages",
            "deeplink": "zomato://restaurant/8209828",
            "location": {
                "lat": "38.7169675115",
                "long": "-9.1468554363"
            },
            "name": "Chafariz do Vinho",
            "offer": "food",
            "rating": "3.8"
        },
        {
            "cost": 30,
            "cuisines": "Beverages, Tapas",
            "deeplink": "zomato://restaurant/18519617",
            "location": {
                "lat": "38.7117460000",
                "long": "-9.1455790000"
            },
            "name": "T\u00e1 Berna",
            "offer": "drinks",
            "rating": "0"
        },
        {
            "cost": 40,
            "cuisines": "Beverages, Petiscos, Portuguese",
            "deeplink": "zomato://restaurant/8203666",
            "location": {
                "lat": "38.7120833175",
                "long": "-9.1437953711"
            },
            "name": "Grapes and Bites",
            "offer": "food",
            "rating": "3.7"
        },
        {
            "cost": 20,
            "cuisines": "Beverages, Petiscos, Tapas",
            "deeplink": "zomato://restaurant/18525240",
            "location": {
                "lat": "38.7093475522",
                "long": "-9.1354966164"
            },
            "name": "Vinhos de Selec\u00e7\u00e3o",
            "offer": "drinks",
            "rating": "0"
        },
        {
            "cost": 60,
            "cuisines": "Portuguese, Mediterranean",
            "deeplink": "zomato://restaurant/8211185",
            "location": {
                "lat": "38.7381375612",
                "long": "-9.1413455084"
            },
            "name": "Vasco da Gama - Holiday Inn Lisboa",
            "offer": "food",
            "rating": "0"
        },
        {
            "cost": 12,
            "cuisines": "Cafe, Petiscos, Portuguese",
            "deeplink": "zomato://restaurant/18602110",
            "location": {
                "lat": "38.7431847206",
                "long": "-9.1742417961"
            },
            "name": "Dom Sabor",
            "offer": "food",
            "rating": "3.1"
        },
        {
            "cost": 10,
            "cuisines": "Ice Cream",
            "deeplink": "zomato://restaurant/18572831",
            "location": {
                "lat": "38.7751100645",
                "long": "-9.0927794203"
            },
            "name": "Softaria",
            "offer": "food",
            "rating": "0"
        },
        {
            "cost": 15,
            "cuisines": "Beverages, Petiscos",
            "deeplink": "zomato://restaurant/18261588",
            "location": {
                "lat": "38.7144511599",
                "long": "-9.1294428706"
            },
            "name": "Rendezvous - More Than Wine",
            "offer": "food",
            "rating": "3.2"
        },
        {
            "cost": 20,
            "cuisines": "Beverages, Petiscos, Portuguese",
            "deeplink": "zomato://restaurant/18237461",
            "location": {
                "lat": "38.7082759262",
                "long": "-9.1543693095"
            },
            "name": "A Tasca das Manas",
            "offer": "food",
            "rating": "3.2"
        },
        {
            "cost": 20,
            "cuisines": "Portuguese, Grill",
            "deeplink": "zomato://restaurant/8202622",
            "location": {
                "lat": "38.7217095953",
                "long": "-9.1448058933"
            },
            "name": "Devagar Devagarinho",
            "offer": "food",
            "rating": "3.7"
        },
        {
            "cost": 14,
            "cuisines": "Portuguese, Finger Food, Healthy Food",
            "deeplink": "zomato://restaurant/18493032",
            "location": {
                "lat": "38.7385646222",
                "long": "-9.1546606645"
            },
            "name": "Brunchy",
            "offer": "food",
            "rating": "3.1"
        },
        {
            "cost": 14,
            "cuisines": "Beverages, Petiscos",
            "deeplink": "zomato://restaurant/18341502",
            "location": {
                "lat": "38.7338239185",
                "long": "-9.1401844472"
            },
            "name": "LX Brewery",
            "offer": "drinks",
            "rating": "3.4"
        },
        {
            "cost": 15,
            "cuisines": "Burger, Finger Food",
            "deeplink": "zomato://restaurant/8202982",
            "location": {
                "lat": "38.7279762598",
                "long": "-9.1359116882"
            },
            "name": "Hamburgueria Portuguesa",
            "offer": "food",
            "rating": "3.5"
        },
        {
            "cost": 15,
            "cuisines": "Sushi, Beverages, Tapas, Burger",
            "deeplink": "zomato://restaurant/18522634",
            "location": {
                "lat": "38.7166010123",
                "long": "-9.1367639601"
            },
            "name": "Love Lisbon - Martim Moniz",
            "offer": "drinks",
            "rating": "3.7"
        },
        {
            "cost": 25,
            "cuisines": "Fusion, African, Portuguese, Petiscos",
            "deeplink": "zomato://restaurant/18378102",
            "location": {
                "lat": "38.7544420003",
                "long": "-9.1433692351"
            },
            "name": "O Cantinho dos Sabores",
            "offer": "food",
            "rating": "3.0"
        },
        {
            "cost": 25,
            "cuisines": "Portuguese, Finger Food, Alentejana, Petiscos",
            "deeplink": "zomato://restaurant/8209857",
            "location": {
                "lat": "38.7592168915",
                "long": "-9.1689611971"
            },
            "name": "O Cantinho De Telheiras",
            "offer": "food",
            "rating": "3.5"
        },
        {
            "cost": 15,
            "cuisines": "Finger Food, Beverages, Pizza, Petiscos",
            "deeplink": "zomato://restaurant/8201417",
            "location": {
                "lat": "38.7155669042",
                "long": "-9.1463109478"
            },
            "name": "Pub Lisboeta",
            "offer": "drinks",
            "rating": "3.5"
        },
        {
            "cost": 40,
            "cuisines": "Portuguese",
            "deeplink": "zomato://restaurant/18379568",
            "location": {
                "lat": "38.7092758668",
                "long": "-9.1301368922"
            },
            "name": "O Fado da Mimi",
            "offer": "food",
            "rating": "3.0"
        },
        {
            "cost": 30,
            "cuisines": "Vegetarian, Healthy Food",
            "deeplink": "zomato://restaurant/18335493",
            "location": {
                "lat": "38.7079800227",
                "long": "-9.1414762661"
            },
            "name": "Ao 26 Vegan Food Project",
            "offer": "food",
            "rating": "4.7"
        },
        {
            "cost": 12,
            "cuisines": "Beverages, Finger Food",
            "deeplink": "zomato://restaurant/8203569",
            "location": {
                "lat": "38.7074753358",
                "long": "-9.1439207643"
            },
            "name": "Cais de Quatro",
            "offer": "drinks",
            "rating": "3.4"
        },
        {
            "cost": 40,
            "cuisines": "Mediterranean, Portuguese, Beverages, Grill",
            "deeplink": "zomato://restaurant/18456290",
            "location": {
                "lat": "38.7050101934",
                "long": "-9.1445829347"
            },
            "name": "Lisboa Rio Restaurante & Club",
            "offer": "food",
            "rating": "3.7"
        },
        {
            "cost": 13,
            "cuisines": "Portuguese, Finger Food",
            "deeplink": "zomato://restaurant/8211412",
            "location": {
                "lat": "38.7495540927",
                "long": "-9.2075786367"
            },
            "name": "Mercado da Gula",
            "offer": "food",
            "rating": "0"
        },
        {
            "cost": 30,
            "cuisines": "Sushi, Grill",
            "deeplink": "zomato://restaurant/18618109",
            "location": {
                "lat": "38.7188292773",
                "long": "-9.1322759539"
            },
            "name": "Giro - Sabores do Mundo",
            "offer": "food",
            "rating": "3.7"
        },
        {
            "cost": 30,
            "cuisines": "Italian",
            "deeplink": "zomato://restaurant/8202765",
            "location": {
                "lat": "38.7095032192",
                "long": "-9.1361195594"
            },
            "name": "Bella Ciao",
            "offer": "food",
            "rating": "3.8"
        },
        {
            "cost": 40,
            "cuisines": "Portuguese",
            "deeplink": "zomato://restaurant/18457855",
            "location": {
                "lat": "38.7045028691",
                "long": "-9.1662786528"
            },
            "name": "Arcada das Chichas",
            "offer": "food",
            "rating": "0"
        },
        {
            "cost": 30,
            "cuisines": "American, Latin American, BBQ, Steak",
            "deeplink": "zomato://restaurant/18605050",
            "location": {
                "lat": "38.7046933451",
                "long": "-9.1598259285"
            },
            "name": "Contrabando",
            "offer": "drinks",
            "rating": "4.1"
        },
        {
            "cost": 30,
            "cuisines": "Burger, Finger Food",
            "deeplink": "zomato://restaurant/18401933",
            "location": {
                "lat": "38.7101018145",
                "long": "-9.1414511204"
            },
            "name": "The B Temple",
            "offer": "food",
            "rating": "4.5"
        },
        {
            "cost": 50,
            "cuisines": "Portuguese, International, Author, Beverages",
            "deeplink": "zomato://restaurant/18350555",
            "location": {
                "lat": "38.7091251702",
                "long": "-9.1360863671"
            },
            "name": "CR7 Corner Bar & Bistro",
            "offer": "food",
            "rating": "3.7"
        },
        {
            "cost": 20,
            "cuisines": "African, Tapas",
            "deeplink": "zomato://restaurant/18696272",
            "location": {
                "lat": "38.7136383430",
                "long": "-9.1449497268"
            },
            "name": "Leve Leve",
            "offer": "food",
            "rating": "0"
        },
        {
            "cost": 20,
            "cuisines": "Beverages",
            "deeplink": "zomato://restaurant/18393754",
            "location": {
                "lat": "38.7149128944",
                "long": "-9.1505357623"
            },
            "name": "Shelter Bar",
            "offer": "drinks",
            "rating": "0"
        },
        {
            "cost": 20,
            "cuisines": "Portuguese, African, American, Cafe",
            "deeplink": "zomato://restaurant/8213463",
            "location": {
                "lat": "38.7177342499",
                "long": "-9.1457919404"
            },
            "name": "Brooklyn",
            "offer": "drinks",
            "rating": "3.6"
        },
        {
            "cost": 10,
            "cuisines": "Desserts, Tea",
            "deeplink": "zomato://restaurant/18619539",
            "location": {
                "lat": "38.7304811501",
                "long": "-9.1503600776"
            },
            "name": "Sapore Cafeteria",
            "offer": "food",
            "rating": "0"
        },
        {
            "cost": 25,
            "cuisines": "Tapas, Petiscos, Beverages",
            "deeplink": "zomato://restaurant/18463026",
            "location": {
                "lat": "38.7137272902",
                "long": "-9.1444303840"
            },
            "name": "Tapas Wine Bar 139",
            "offer": "drinks",
            "rating": "0"
        },
        {
            "cost": 15,
            "cuisines": "Petiscos",
            "deeplink": "zomato://restaurant/18261368",
            "location": {
                "lat": "38.7162329416",
                "long": "-9.1666987538"
            },
            "name": "Alhos e Bugalhos",
            "offer": "food",
            "rating": "3.7"
        },
        {
            "cost": 18,
            "cuisines": "Pizza, Finger Food, Cafe",
            "deeplink": "zomato://restaurant/18605042",
            "location": {
                "lat": "38.7132187196",
                "long": "-9.1597283632"
            },
            "name": "L\u00e1 Pizzeria Masstige",
            "offer": "food",
            "rating": "0"
        },
        {
            "cost": 12,
            "cuisines": "Italian, Fast Food",
            "deeplink": "zomato://restaurant/8212625",
            "location": {
                "lat": "38.7159496280",
                "long": "-9.1250256076"
            },
            "name": "Focaccia in Giro",
            "offer": "food",
            "rating": "3.8"
        },
        {
            "cost": 35,
            "cuisines": "Japanese, Sushi",
            "deeplink": "zomato://restaurant/18463068",
            "location": {
                "lat": "38.7772262033",
                "long": "-9.0939263999"
            },
            "name": "SushiNow",
            "offer": "food",
            "rating": "4.4"
        },
        {
            "cost": 10,
            "cuisines": "Argentine, Desserts, Finger Food, Cafe",
            "deeplink": "zomato://restaurant/18268997",
            "location": {
                "lat": "38.7093104014",
                "long": "-9.1525879875"
            },
            "name": "La Argentina",
            "offer": "food",
            "rating": "3.9"
        },
        {
            "cost": 22,
            "cuisines": "Petiscos",
            "deeplink": "zomato://restaurant/18261370",
            "location": {
                "lat": "38.7162211696",
                "long": "-9.1666340455"
            },
            "name": "Casti\u00e7o - Charcutaria",
            "offer": "food",
            "rating": "3.2"
        },
        {
            "cost": 20,
            "cuisines": "Tapas, Petiscos, Beverages",
            "deeplink": "zomato://restaurant/8212991",
            "location": {
                "lat": "38.7462677580",
                "long": "-9.1633071005"
            },
            "name": "Tapas & Tiles - Caf\u00e9 Terrace",
            "offer": "food",
            "rating": "3.8"
        },
        {
            "cost": 80,
            "cuisines": "Portuguese",
            "deeplink": "zomato://restaurant/8202715",
            "location": {
                "lat": "38.7128817635",
                "long": "-9.1437879950"
            },
            "name": "Caf\u00e9 Luso",
            "offer": "food",
            "rating": "3.8"
        },
        {
            "cost": 11,
            "cuisines": "Beverages, Finger Food",
            "deeplink": "zomato://restaurant/18347791",
            "location": {
                "lat": "38.7557681151",
                "long": "-9.0942234546"
            },
            "name": "1UP Gaming Lounge",
            "offer": "food",
            "rating": "3.7"
        },
        {
            "cost": 30,
            "cuisines": "Angolan, African",
            "deeplink": "zomato://restaurant/18401958",
            "location": {
                "lat": "38.7717117217",
                "long": "-9.0922010690"
            },
            "name": "Mwana Pwo",
            "offer": "food",
            "rating": "3.9"
        },
        {
            "cost": 20,
            "cuisines": "Beverages, Drinks Only",
            "deeplink": "zomato://restaurant/18737955",
            "location": {
                "lat": "38.7218341074",
                "long": "-9.1492120922"
            },
            "name": "Bar Ar",
            "offer": "drinks",
            "rating": "0"
        },
        {
            "cost": 30,
            "cuisines": "Tapas, Petiscos, Beverages",
            "deeplink": "zomato://restaurant/18611618",
            "location": {
                "lat": "38.7135703244",
                "long": "-9.1307739168"
            },
            "name": "Li28OA Wine & Tapas",
            "offer": "food",
            "rating": "0"
        },
        {
            "cost": 25,
            "cuisines": "Portuguese, Petiscos, Snack Bar",
            "deeplink": "zomato://restaurant/8201521",
            "location": {
                "lat": "38.7073596942",
                "long": "-9.1583128273"
            },
            "name": "Santos da Lapa",
            "offer": "food",
            "rating": "3.7"
        },
        {
            "cost": 60,
            "cuisines": "Seafood, Petiscos",
            "deeplink": "zomato://restaurant/18735333",
            "location": {
                "lat": "38.7058350000",
                "long": "-9.1485440000"
            },
            "name": "Lisbon Oyster Bar",
            "offer": "drinks",
            "rating": "0"
        },
        {
            "cost": 20,
            "cuisines": "Indian, Italian, Kebab",
            "deeplink": "zomato://restaurant/18436255",
            "location": {
                "lat": "38.7499677501",
                "long": "-9.2051170394"
            },
            "name": "Indian Dreams",
            "offer": "food",
            "rating": "3.5"
        },
        {
            "cost": 20,
            "cuisines": "Portuguese, Beverages",
            "deeplink": "zomato://restaurant/8213237",
            "location": {
                "lat": "38.7097590879",
                "long": "-9.1461516917"
            },
            "name": "Pop Out The Can",
            "offer": "food",
            "rating": "3.7"
        },
        {
            "cost": 15,
            "cuisines": "Finger Food, Bar Food, American, Cafe Food",
            "deeplink": "zomato://restaurant/18687104",
            "location": {
                "lat": "38.7334198444",
                "long": "-9.1350537166"
            },
            "name": "Karma",
            "offer": "drinks",
            "rating": "0"
        },
        {
            "cost": 12,
            "cuisines": "Petiscos, Beverages, Finger Food",
            "deeplink": "zomato://restaurant/8211489",
            "location": {
                "lat": "38.7113350934",
                "long": "-9.1453889385"
            },
            "name": "TascaMastai",
            "offer": "drinks",
            "rating": "3.8"
        },
        {
            "cost": 30,
            "cuisines": "Angolan, Portuguese, Beverages",
            "deeplink": "zomato://restaurant/18507581",
            "location": {
                "lat": "38.7046135440",
                "long": "-9.1748969257"
            },
            "name": "Consulado Restaurante & Bar",
            "offer": "food",
            "rating": "0"
        },
        {
            "cost": 25,
            "cuisines": "Healthy Food",
            "deeplink": "zomato://restaurant/18493050",
            "location": {
                "lat": "38.7013955268",
                "long": "-9.1776321083"
            },
            "name": "The Therapist",
            "offer": "food",
            "rating": "3.8"
        },
        {
            "cost": 15,
            "cuisines": "Healthy Food, Petiscos, Cafe",
            "deeplink": "zomato://restaurant/18614947",
            "location": {
                "lat": "38.7462209512",
                "long": "-9.1535599530"
            },
            "name": "Blessed",
            "offer": "food",
            "rating": "0"
        },
        {
            "cost": 15,
            "cuisines": "Drinks Only",
            "deeplink": "zomato://restaurant/8203773",
            "location": {
                "lat": "38.7071017238",
                "long": "-9.1429347172"
            },
            "name": "Viking",
            "offer": "drinks",
            "rating": "3.6"
        },
        {
            "cost": 10,
            "cuisines": "Drinks Only",
            "deeplink": "zomato://restaurant/18736063",
            "location": {
                "lat": "38.7114300607",
                "long": "-9.1445950046"
            },
            "name": "Sentido Proibido 3",
            "offer": "drinks",
            "rating": "0"
        },
        {
            "cost": 60,
            "cuisines": "Portuguese",
            "deeplink": "zomato://restaurant/8200462",
            "location": {
                "lat": "38.7092810993",
                "long": "-9.1322109103"
            },
            "name": "Duetos da S\u00e9",
            "offer": "food",
            "rating": "3.7"
        },
        {
            "cost": 60,
            "cuisines": "Fusion, Portuguese, Author",
            "deeplink": "zomato://restaurant/18556099",
            "location": {
                "lat": "38.7125529157",
                "long": "-9.1414933652"
            },
            "name": "Mensagem - Restaurante e Bar Panor\u00e2mico",
            "offer": "food",
            "rating": "3.8"
        },
        {
            "cost": 20,
            "cuisines": "Finger Food, Petiscos, Portuguese, Healthy Food",
            "deeplink": "zomato://restaurant/18301487",
            "location": {
                "lat": "38.7134562623",
                "long": "-9.1302995011"
            },
            "name": "Quase Caf\u00e9",
            "offer": "food",
            "rating": "3.8"
        },
        {
            "cost": 10,
            "cuisines": "Finger Food, Cafe",
            "deeplink": "zomato://restaurant/8200094",
            "location": {
                "lat": "38.7221772992",
                "long": "-9.1565311700"
            },
            "name": "Quiosque das Amoreiras",
            "offer": "food",
            "rating": "3.7"
        },
        {
            "cost": 20,
            "cuisines": "Portuguese, Nepalese",
            "deeplink": "zomato://restaurant/18523185",
            "location": {
                "lat": "38.7278193253",
                "long": "-9.1369282454"
            },
            "name": "Oasis de Anna-Purna",
            "offer": "food",
            "rating": "3.2"
        },
        {
            "cost": 35,
            "cuisines": "Portuguese, Tapas",
            "deeplink": "zomato://restaurant/8212937",
            "location": {
                "lat": "38.7088664213",
                "long": "-9.1323483735"
            },
            "name": "Canto Saudade",
            "offer": "food",
            "rating": "3.4"
        },
        {
            "cost": 30,
            "cuisines": "Portuguese, Cafe",
            "deeplink": "zomato://restaurant/8209624",
            "location": {
                "lat": "38.7331554296",
                "long": "-9.1500817984"
            },
            "name": "Real Cantinho - Hotel Real Parque",
            "offer": "food",
            "rating": "3.8"
        },
        {
            "cost": 40,
            "cuisines": "Portuguese",
            "deeplink": "zomato://restaurant/8211334",
            "location": {
                "lat": "38.7279872452",
                "long": "-9.1592697054"
            },
            "name": "Restaurante UQ - Skyna Hotel Lisboa",
            "offer": "food",
            "rating": "3.2"
        },
        {
            "cost": 30,
            "cuisines": "Portuguese, Finger Food, Desserts, Petiscos",
            "deeplink": "zomato://restaurant/8209870",
            "location": {
                "lat": "38.7022759890",
                "long": "-9.1801761836"
            },
            "name": "Buzz Lisboeta",
            "offer": "food",
            "rating": "3.9"
        },
        {
            "cost": 12,
            "cuisines": "Finger Food, Healthy Food",
            "deeplink": "zomato://restaurant/18687270",
            "location": {
                "lat": "38.7122120000",
                "long": "-9.1657160000"
            },
            "name": "Benjamin Coffee House",
            "offer": "food",
            "rating": "3.8"
        },
        {
            "cost": 0,
            "cuisines": "Ice Cream, Cafe, Finger Food, Desserts, Juices",
            "deeplink": "zomato://restaurant/18581798",
            "location": {
                "lat": "38.7379524047",
                "long": "-9.1320181265"
            },
            "name": "Sabores com Paix\u00e3o",
            "offer": "food",
            "rating": "0"
        },
        {
            "cost": 30,
            "cuisines": "Healthy Food, Mediterranean, Juices, Beverages, Latin American, Petiscos",
            "deeplink": "zomato://restaurant/18581936",
            "location": {
                "lat": "38.7078813880",
                "long": "-9.1469657421"
            },
            "name": "Tr\u00f3pico do Cais",
            "offer": "food",
            "rating": "4.3"
        },
        {
            "cost": 30,
            "cuisines": "Portuguese, Mediterranean",
            "deeplink": "zomato://restaurant/18451882",
            "location": {
                "lat": "38.7072377732",
                "long": "-9.1567011550"
            },
            "name": "Pintas",
            "offer": "food",
            "rating": "3.7"
        },
        {
            "cost": 70,
            "cuisines": "Portuguese, Mediterranean, Author",
            "deeplink": "zomato://restaurant/8203864",
            "location": {
                "lat": "38.7468307444",
                "long": "-9.1644222289"
            },
            "name": "Citrus Grill Restaurante - Lisboa Marriott Hotel",
            "offer": "food",
            "rating": "3.5"
        },
        {
            "cost": 15,
            "cuisines": "Cafe, Portuguese",
            "deeplink": "zomato://restaurant/8207218",
            "location": {
                "lat": "38.7579870536",
                "long": "-9.1865786165"
            },
            "name": "Canela QB",
            "offer": "food",
            "rating": "3.3"
        },
        {
            "cost": 18,
            "cuisines": "Beverages",
            "deeplink": "zomato://restaurant/18554741",
            "location": {
                "lat": "38.7103678843",
                "long": "-9.1439539567"
            },
            "name": "Le Consulat: Art and Drinks",
            "offer": "drinks",
            "rating": "3.9"
        },
        {
            "cost": 25,
            "cuisines": "Finger Food, Petiscos",
            "deeplink": "zomato://restaurant/18691323",
            "location": {
                "lat": "38.7260836061",
                "long": "-9.1457892582"
            },
            "name": "Sai Prego",
            "offer": "food",
            "rating": "3.3"
        },
        {
            "cost": 20,
            "cuisines": "Drinks Only",
            "deeplink": "zomato://restaurant/8203589",
            "location": {
                "lat": "38.7050541492",
                "long": "-9.1592861339"
            },
            "name": "Bar Number 2 - \u00c9 Pra Poncha",
            "offer": "drinks",
            "rating": "3.4"
        },
        {
            "cost": 20,
            "cuisines": "Drinks Only",
            "deeplink": "zomato://restaurant/8203633",
            "location": {
                "lat": "38.7108602547",
                "long": "-9.1434238851"
            },
            "name": "Ginjinha das G\u00e1veas",
            "offer": "drinks",
            "rating": "3.5"
        },
        {
            "cost": 20,
            "cuisines": "Beverages, Finger Food",
            "deeplink": "zomato://restaurant/18364554",
            "location": {
                "lat": "38.7359386664",
                "long": "-9.1320871934"
            },
            "name": "Vlada Lounge",
            "offer": "food",
            "rating": "3.6"
        },
        {
            "cost": 15,
            "cuisines": "Drinks Only",
            "deeplink": "zomato://restaurant/8203510",
            "location": {
                "lat": "38.7108916491",
                "long": "-9.1434121504"
            },
            "name": "A Trave",
            "offer": "drinks",
            "rating": "3.4"
        },
        {
            "cost": 25,
            "cuisines": "Burger, Sandwich, Tea",
            "deeplink": "zomato://restaurant/18661428",
            "location": {
                "lat": "38.7455930000",
                "long": "-9.1500180000"
            },
            "name": "Baku",
            "offer": "food",
            "rating": "3.4"
        },
        {
            "cost": 10,
            "cuisines": "Portuguese, Finger Food, Beverages",
            "deeplink": "zomato://restaurant/18676586",
            "location": {
                "lat": "38.7497740000",
                "long": "-9.1936400000"
            },
            "name": "MySpot",
            "offer": "food",
            "rating": "3.5"
        },
        {
            "cost": 45,
            "cuisines": "Portuguese, Mediterranean, Finger Food",
            "deeplink": "zomato://restaurant/18242672",
            "location": {
                "lat": "38.7217341838",
                "long": "-9.1492483020"
            },
            "name": "\u00c1gua",
            "offer": "food",
            "rating": "3.7"
        },
        {
            "cost": 15,
            "cuisines": "Petiscos, Mediterranean",
            "deeplink": "zomato://restaurant/18252227",
            "location": {
                "lat": "38.7173842352",
                "long": "-9.1576902196"
            },
            "name": "Rota do Sul - Sabores Mediterr\u00e2nicos",
            "offer": "food",
            "rating": "3.6"
        },
        {
            "cost": 20,
            "cuisines": "Healthy Food, Vegetarian",
            "deeplink": "zomato://restaurant/18542450",
            "location": {
                "lat": "38.7153699171",
                "long": "-9.1545969620"
            },
            "name": "TOO Funda\u00e7\u00e3o Am\u00e1lia Rodrigues",
            "offer": "food",
            "rating": "3.6"
        },
        {
            "cost": 20,
            "cuisines": "Finger Food",
            "deeplink": "zomato://restaurant/8214607",
            "location": {
                "lat": "38.7161693727",
                "long": "-9.1666249931"
            },
            "name": "Casti\u00e7o - Empadaria",
            "offer": "food",
            "rating": "3.5"
        },
        {
            "cost": 20,
            "cuisines": "Indian, Nepalese, Portuguese",
            "deeplink": "zomato://restaurant/18465118",
            "location": {
                "lat": "38.7262857950",
                "long": "-9.1341860220"
            },
            "name": "Miteri Restaurant & Rodhi Ghar",
            "offer": "food",
            "rating": "3.4"
        },
        {
            "cost": 30,
            "cuisines": "Vegetarian",
            "deeplink": "zomato://restaurant/8202867",
            "location": {
                "lat": "38.7233065248",
                "long": "-9.1420123726"
            },
            "name": "Psi",
            "offer": "food",
            "rating": "4.4"
        },
        {
            "cost": 20,
            "cuisines": "Beverages, Finger Food",
            "deeplink": "zomato://restaurant/18368793",
            "location": {
                "lat": "38.7185033344",
                "long": "-9.1623891145"
            },
            "name": "Mignon Sports Bar",
            "offer": "drinks",
            "rating": "3.7"
        },
        {
            "cost": 15,
            "cuisines": "Cafe, Finger Food, Desserts",
            "deeplink": "zomato://restaurant/18663280",
            "location": {
                "lat": "38.7107020000",
                "long": "-9.1384350000"
            },
            "name": "Pappa Roti",
            "offer": "food",
            "rating": "3.5"
        },
        {
            "cost": 20,
            "cuisines": "Petiscos",
            "deeplink": "zomato://restaurant/8212445",
            "location": {
                "lat": "38.7080344419",
                "long": "-9.1588643566"
            },
            "name": "Taberna \u00e0 Lapa",
            "offer": "food",
            "rating": "3.6"
        },
        {
            "cost": 6,
            "cuisines": "Vegetarian, Burger, Portuguese, Finger Food",
            "deeplink": "zomato://restaurant/8211033",
            "location": {
                "lat": "38.7112992517",
                "long": "-9.2127241194"
            },
            "name": "Izzy - Casual Food",
            "offer": "food",
            "rating": "3.5"
        },
        {
            "cost": 12,
            "cuisines": "Desserts, Finger Food",
            "deeplink": "zomato://restaurant/18641363",
            "location": {
                "lat": "38.7377010828",
                "long": "-9.1315222532"
            },
            "name": "Double Eight 88",
            "offer": "food",
            "rating": "3.3"
        },
        {
            "cost": 20,
            "cuisines": "Indian, Nepalese",
            "deeplink": "zomato://restaurant/18350530",
            "location": {
                "lat": "38.7037461929",
                "long": "-9.1827943549"
            },
            "name": "Hungry Eye",
            "offer": "food",
            "rating": "3.5"
        },
        {
            "cost": 18,
            "cuisines": "Ice Cream, Crepes, Healthy Food",
            "deeplink": "zomato://restaurant/18641540",
            "location": {
                "lat": "38.7485162778",
                "long": "-9.1769293696"
            },
            "name": "Di Gelato",
            "offer": "food",
            "rating": "3.4"
        },
        {
            "cost": 5,
            "cuisines": "Drinks Only",
            "deeplink": "zomato://restaurant/8200450",
            "location": {
                "lat": "38.7134887020",
                "long": "-9.1406068951"
            },
            "name": "Ginginha do Carmo",
            "offer": "drinks",
            "rating": "3.5"
        },
        {
            "cost": 16,
            "cuisines": "Beverages, Petiscos, Portuguese",
            "deeplink": "zomato://restaurant/18619818",
            "location": {
                "lat": "38.7326721052",
                "long": "-9.1317908093"
            },
            "name": "Flor de L\u00fapulo",
            "offer": "food",
            "rating": "3.5"
        },
        {
            "cost": 30,
            "cuisines": "Portuguese, Petiscos",
            "deeplink": "zomato://restaurant/18430534",
            "location": {
                "lat": "38.7088818573",
                "long": "-9.1322400793"
            },
            "name": "Cais na Pregui\u00e7a",
            "offer": "food",
            "rating": "3.5"
        },
        {
            "cost": 30,
            "cuisines": "International, Brazilian",
            "deeplink": "zomato://restaurant/18588047",
            "location": {
                "lat": "38.7093083084",
                "long": "-9.1523539647"
            },
            "name": "O Fatica",
            "offer": "food",
            "rating": "3.6"
        },
        {
            "cost": 6,
            "cuisines": "Desserts",
            "deeplink": "zomato://restaurant/18591415",
            "location": {
                "lat": "38.7102234690",
                "long": "-9.1398015618"
            },
            "name": "BrigaDoce Caff\u00e9",
            "offer": "food",
            "rating": "3.6"
        },
        {
            "cost": 30,
            "cuisines": "Cafe, Finger Food, Healthy Food",
            "deeplink": "zomato://restaurant/8213239",
            "location": {
                "lat": "38.7152051067",
                "long": "-9.1289483383"
            },
            "name": "A Janela da Voz do Oper\u00e1rio",
            "offer": "drinks",
            "rating": "3.6"
        },
        {
            "cost": 20,
            "cuisines": "Healthy Food",
            "deeplink": "zomato://restaurant/18722779",
            "location": {
                "lat": "38.7328638138",
                "long": "-9.1444826871"
            },
            "name": "Grow Healthy",
            "offer": "drinks",
            "rating": "3.2"
        },
        {
            "cost": 12,
            "cuisines": "Desserts, Finger Food, Crepes",
            "deeplink": "zomato://restaurant/18388630",
            "location": {
                "lat": "38.7202031389",
                "long": "-9.1643518209"
            },
            "name": "Crepy",
            "offer": "food",
            "rating": "3.6"
        },
        {
            "cost": 40,
            "cuisines": "Portuguese, Author",
            "deeplink": "zomato://restaurant/8212617",
            "location": {
                "lat": "38.7094299642",
                "long": "-9.1319792345"
            },
            "name": "Cora\u00e7\u00e3o da S\u00e9",
            "offer": "food",
            "rating": "3.5"
        },
        {
            "cost": 30,
            "cuisines": "Petiscos, Tapas",
            "deeplink": "zomato://restaurant/18628447",
            "location": {
                "lat": "38.7115143016",
                "long": "-9.1385828331"
            },
            "name": "Loja das Conservas - Restaurante",
            "offer": "food",
            "rating": "3.7"
        },
        {
            "cost": 8,
            "cuisines": "Cafe, Bakery, Finger Food",
            "deeplink": "zomato://restaurant/8212793",
            "location": {
                "lat": "38.7201673016",
                "long": "-9.1459907591"
            },
            "name": "Lisboa on Wheels",
            "offer": "food",
            "rating": "3.3"
        },
        {
            "cost": 30,
            "cuisines": "Tapas, Portuguese",
            "deeplink": "zomato://restaurant/18507976",
            "location": {
                "lat": "38.7044144336",
                "long": "-9.1665019467"
            },
            "name": "A Talisca",
            "offer": "food",
            "rating": "3.4"
        },
        {
            "cost": 10,
            "cuisines": "Beverages, Finger Food, Petiscos",
            "deeplink": "zomato://restaurant/8200392",
            "location": {
                "lat": "38.7135452098",
                "long": "-9.1408630461"
            },
            "name": "Lisboa Bar",
            "offer": "drinks",
            "rating": "3.3"
        },
        {
            "cost": 6,
            "cuisines": "Cafe, Finger Food, Bakery",
            "deeplink": "zomato://restaurant/18336535",
            "location": {
                "lat": "38.7392560738",
                "long": "-9.1331979632"
            },
            "name": "Bolacha Bolacha",
            "offer": "food",
            "rating": "3.5"
        },
        {
            "cost": 8,
            "cuisines": "Desserts, Cafe, Finger Food",
            "deeplink": "zomato://restaurant/18504739",
            "location": {
                "lat": "38.7194479368",
                "long": "-9.1640343145"
            },
            "name": "Tartana",
            "offer": "food",
            "rating": "3.2"
        },
        {
            "cost": 20,
            "cuisines": "Drinks Only",
            "deeplink": "zomato://restaurant/8203827",
            "location": {
                "lat": "38.7072095168",
                "long": "-9.1431435943"
            },
            "name": "Tokyo Rock Bar",
            "offer": "drinks",
            "rating": "3.3"
        },
        {
            "cost": 11,
            "cuisines": "Petiscos, Cafe, Finger Food",
            "deeplink": "zomato://restaurant/8211402",
            "location": {
                "lat": "38.7408343054",
                "long": "-9.1494313627"
            },
            "name": "Elephant Walk Caf\u00e9",
            "offer": "food",
            "rating": "3.3"
        },
        {
            "cost": 5,
            "cuisines": "Desserts",
            "deeplink": "zomato://restaurant/18301201",
            "location": {
                "lat": "38.7108063610",
                "long": "-9.2080111429"
            },
            "name": "Gra\u00e7a Ara\u00fajo Bolos & Chocolate",
            "offer": "food",
            "rating": "3.6"
        },
        {
            "cost": 20,
            "cuisines": "Healthy Food, Vegetarian",
            "deeplink": "zomato://restaurant/18511803",
            "location": {
                "lat": "38.7182009335",
                "long": "-9.1322259977"
            },
            "name": "A Li",
            "offer": "drinks",
            "rating": "3.3"
        },
        {
            "cost": 30,
            "cuisines": "Beverages, Petiscos",
            "deeplink": "zomato://restaurant/8202063",
            "location": {
                "lat": "38.7233284971",
                "long": "-9.1453932971"
            },
            "name": "Urban Bar - Inspira Santa Marta Hotel",
            "offer": "drinks",
            "rating": "3.4"
        },
        {
            "cost": 30,
            "cuisines": "Portuguese, Italian, Cafe, Tea",
            "deeplink": "zomato://restaurant/8204258",
            "location": {
                "lat": "38.7483787381",
                "long": "-9.1493311152"
            },
            "name": "LA Warehouse Caff\u00e9",
            "offer": "food",
            "rating": "3.6"
        },
        {
            "cost": 8,
            "cuisines": "Ice Cream, Desserts, Juices",
            "deeplink": "zomato://restaurant/18576529",
            "location": {
                "lat": "38.7347094735",
                "long": "-9.1489864513"
            },
            "name": "Gelateria della Nonna",
            "offer": "food",
            "rating": "3.3"
        },
        {
            "cost": 30,
            "cuisines": "Burger",
            "deeplink": "zomato://restaurant/8214317",
            "location": {
                "lat": "38.7179317537",
                "long": "-9.1457279027"
            },
            "name": "Hamburgueria A Gina",
            "offer": "food",
            "rating": "3.8"
        },
        {
            "cost": 30,
            "cuisines": "Italian, Pizza",
            "deeplink": "zomato://restaurant/8212298",
            "location": {
                "lat": "38.7229834797",
                "long": "-9.1465459764"
            },
            "name": "Divino",
            "offer": "food",
            "rating": "3.7"
        },
        {
            "cost": 30,
            "cuisines": "Beverages, Tapas, Finger Food",
            "deeplink": "zomato://restaurant/8200632",
            "location": {
                "lat": "38.7101821326",
                "long": "-9.1306729987"
            },
            "name": "Wine Bar & Terrace - Memmo Alfama Hotel",
            "offer": "drinks",
            "rating": "4.0"
        },
        {
            "cost": 20,
            "cuisines": "Finger Food, Petiscos, Fusion",
            "deeplink": "zomato://restaurant/8201146",
            "location": {
                "lat": "38.7159593072",
                "long": "-9.1306099668"
            },
            "name": "Botequim",
            "offer": "food",
            "rating": "4.0"
        },
        {
            "cost": 30,
            "cuisines": "Sushi, Japanese",
            "deeplink": "zomato://restaurant/18615132",
            "location": {
                "lat": "38.7345300000",
                "long": "-9.1482840000"
            },
            "name": "Koi Sushi",
            "offer": "food",
            "rating": "3.8"
        },
        {
            "cost": 50,
            "cuisines": "Author, Contemporary, Portuguese",
            "deeplink": "zomato://restaurant/18471523",
            "location": {
                "lat": "38.7443625141",
                "long": "-9.1584744304"
            },
            "name": "Soberba",
            "offer": "food",
            "rating": "4.0"
        },
        {
            "cost": 75,
            "cuisines": "Portuguese",
            "deeplink": "zomato://restaurant/8209266",
            "location": {
                "lat": "38.7215905762",
                "long": "-9.1550110281"
            },
            "name": "Est\u00f3rias na Casa da Comida",
            "offer": "food",
            "rating": "4.2"
        },